{
  "london": {
    "name": "London",
    "ladCode": "E09000001",
    "region": "London",
    "country": "England",
    "population": 8799800,
    "lat": 51.5074,
    "lon": -0.1278,
    "aliases": ["the city", "greater london"],
    "postcode": "EC1A 1BB"
  },
  "birmingham": {
    "name": "Birmingham",
    "ladCode": "E08000025",
    "region": "West Midlands",
    "country": "England",
    "population": 1144900,
    "lat": 52.4862,
    "lon": -1.8904,
    "aliases": ["brum"],
    "postcode": "B1 1BB"
  },
  "manchester": {
    "name": "Manchester",
    "ladCode": "E08000003",
    "region": "North West",
    "country": "England",
    "population": 552000,
    "lat": 53.4808,
    "lon": -2.2426,
    "aliases": ["manc"],
    "postcode": "M1 1AD"
  },
  "leeds": {
    "name": "Leeds",
    "ladCode": "E08000035",
    "region": "Yorkshire and The Humber",
    "country": "England",
    "population": 812000,
    "lat": 53.8008,
    "lon": -1.5491,
    "aliases": ["lee"],
    "postcode": "LS1 1UR"
  },
  "glasgow": {
    "name": "Glasgow",
    "ladCode": "S12000049",
    "region": "Scotland",
    "country": "Scotland",
    "population": 635640,
    "lat": 55.8642,
    "lon": -4.2518,
    "aliases": ["gla"],
    "postcode": "G1 1AA"
  },
  "liverpool": {
    "name": "Liverpool",
    "ladCode": "E08000012",
    "region": "North West",
    "country": "England",
    "population": 496784,
    "lat": 53.4084,
    "lon": -2.9916,
    "aliases": ["livpool", "pool"],
    "postcode": "L1 1JQ"
  },
  "bristol": {
    "name": "Bristol",
    "ladCode": "E06000023",
    "region": "South West",
    "country": "England",
    "population": 472400,
    "lat": 51.4545,
    "lon": -2.5879,
    "aliases": ["bris"],
    "postcode": "BS1 1JG"
  },
  "sheffield": {
    "name": "Sheffield",
    "ladCode": "E08000019",
    "region": "Yorkshire and The Humber",
    "country": "England",
    "population": 556500,
    "lat": 53.3811,
    "lon": -1.4701,
    "aliases": ["sheff"],
    "postcode": "S1 1WB"
  },
  "edinburgh": {
    "name": "Edinburgh",
    "ladCode": "S12000036",
    "region": "Scotland",
    "country": "Scotland",
    "population": 527620,
    "lat": 55.9533,
    "lon": -3.1883,
    "aliases": ["edi"],
    "postcode": "EH1 1RE"
  },
  "newcastle": {
    "name": "Newcastle upon Tyne",
    "ladCode": "E08000021",
    "region": "North East",
    "country": "England",
    "population": 302820,
    "lat": 54.9783,
    "lon": -1.6178,
    "aliases": ["ncl", "newcastle upon tyne", "newcastle-upon-tyne"],
    "postcode": "NE1 1AD"
  },
  "cardiff": {
    "name": "Cardiff",
    "ladCode": "W06000015",
    "region": "Wales",
    "country": "Wales",
    "population": 362756,
    "lat": 51.4816,
    "lon": -3.1791,
    "aliases": ["caerdydd"],
    "postcode": "CF10 1EP"
  },
  "belfast": {
    "name": "Belfast",
    "ladCode": "N09000003",
    "region": "Northern Ireland",
    "country": "Northern Ireland",
    "population": 343542,
    "lat": 54.5973,
    "lon": -5.9301,
    "aliases": [],
    "postcode": "BT1 1LJ"
  },
  "nottingham": {
    "name": "Nottingham",
    "ladCode": "E06000018",
    "region": "East Midlands",
    "country": "England",
    "population": 323600,
    "lat": 52.9548,
    "lon": -1.1581,
    "aliases": ["notts"],
    "postcode": "NG1 1DE"
  },
  "leicester": {
    "name": "Leicester",
    "ladCode": "E06000016",
    "region": "East Midlands",
    "country": "England",
    "population": 368600,
    "lat": 52.6369,
    "lon": -1.1398,
    "aliases": [],
    "postcode": "LE1 1AA"
  },
  "coventry": {
    "name": "Coventry",
    "ladCode": "E08000026",
    "region": "West Midlands",
    "country": "England",
    "population": 371521,
    "lat": 52.4068,
    "lon": -1.5197,
    "aliases": ["cov"],
    "postcode": "CV1 1FY"
  },
  "bradford": {
    "name": "Bradford",
    "ladCode": "E08000032",
    "region": "Yorkshire and The Humber",
    "country": "England",
    "population": 546400,
    "lat": 53.7960,
    "lon": -1.7594,
    "aliases": [],
    "postcode": "BD1 1HY"
  },
  "brighton": {
    "name": "Brighton and Hove",
    "ladCode": "E06000043",
    "region": "South East",
    "country": "England",
    "population": 277200,
    "lat": 50.8225,
    "lon": -0.1372,
    "aliases": ["brighton and hove", "brighton & hove", "hove"],
    "postcode": "BN1 1AL"
  },
  "plymouth": {
    "name": "Plymouth",
    "ladCode": "E06000026",
    "region": "South West",
    "country": "England",
    "population": 264200,
    "lat": 50.3755,
    "lon": -4.1427,
    "aliases": [],
    "postcode": "PL1 1EA"
  },
  "stoke": {
    "name": "Stoke-on-Trent",
    "ladCode": "E06000021",
    "region": "West Midlands",
    "country": "England",
    "population": 256375,
    "lat": 53.0027,
    "lon": -2.1794,
    "aliases": ["stoke-on-trent", "stoke on trent"],
    "postcode": "ST1 1LZ"
  },
  "wolverhampton": {
    "name": "Wolverhampton",
    "ladCode": "E08000031",
    "region": "West Midlands",
    "country": "England",
    "population": 263700,
    "lat": 52.5870,
    "lon": -2.1288,
    "aliases": ["wolves"],
    "postcode": "WV1 1AD"
  },
  "derby": {
    "name": "Derby",
    "ladCode": "E06000015",
    "region": "East Midlands",
    "country": "England",
    "population": 257200,
    "lat": 52.9225,
    "lon": -1.4746,
    "aliases": [],
    "postcode": "DE1 1AN"
  },
  "southampton": {
    "name": "Southampton",
    "ladCode": "E06000045",
    "region": "South East",
    "country": "England",
    "population": 252796,
    "lat": 50.9097,
    "lon": -1.4044,
    "aliases": ["soton"],
    "postcode": "SO14 7DU"
  },
  "reading": {
    "name": "Reading",
    "ladCode": "E06000038",
    "region": "South East",
    "country": "England",
    "population": 174224,
    "lat": 51.4543,
    "lon": -0.9781,
    "aliases": [],
    "postcode": "RG1 1AX"
  },
  "hull": {
    "name": "Kingston upon Hull",
    "ladCode": "E06000010",
    "region": "Yorkshire and The Humber",
    "country": "England",
    "population": 259778,
    "lat": 53.7457,
    "lon": -0.3367,
    "aliases": ["hull", "kingston upon hull", "kingston-upon-hull"],
    "postcode": "HU1 1AA"
  },
  "sunderland": {
    "name": "Sunderland",
    "ladCode": "E08000024",
    "region": "North East",
    "country": "England",
    "population": 277705,
    "lat": 54.9069,
    "lon": -1.3838,
    "aliases": [],
    "postcode": "SR1 1AA"
  },
  "swansea": {
    "name": "Swansea",
    "ladCode": "W06000011",
    "region": "Wales",
    "country": "Wales",
    "population": 246563,
    "lat": 51.6214,
    "lon": -3.9436,
    "aliases": ["abertawe"],
    "postcode": "SA1 1NW"
  },
  "aberdeen": {
    "name": "Aberdeen",
    "ladCode": "S12000033",
    "region": "Scotland",
    "country": "Scotland",
    "population": 228670,
    "lat": 57.1497,
    "lon": -2.0943,
    "aliases": [],
    "postcode": "AB10 1AN"
  },
  "cambridge": {
    "name": "Cambridge",
    "ladCode": "E07000008",
    "region": "East of England",
    "country": "England",
    "population": 145700,
    "lat": 52.2053,
    "lon": 0.1218,
    "aliases": [],
    "postcode": "CB1 1JN"
  },
  "oxford": {
    "name": "Oxford",
    "ladCode": "E07000178",
    "region": "South East",
    "country": "England",
    "population": 151906,
    "lat": 51.7520,
    "lon": -1.2577,
    "aliases": [],
    "postcode": "OX1 1BX"
  },
  "york": {
    "name": "York",
    "ladCode": "E06000014",
    "region": "Yorkshire and The Humber",
    "country": "England",
    "population": 211012,
    "lat": 53.9600,
    "lon": -1.0873,
    "aliases": [],
    "postcode": "YO1 7HH"
  },
  "bath": {
    "name": "Bath",
    "ladCode": "E06000022",
    "region": "South West",
    "country": "England",
    "population": 196357,
    "lat": 51.3811,
    "lon": -2.3590,
    "aliases": ["bath and north east somerset", "banes"],
    "postcode": "BA1 1JN"
  },
  "norwich": {
    "name": "Norwich",
    "ladCode": "E07000148",
    "region": "East of England",
    "country": "England",
    "population": 144000,
    "lat": 52.6309,
    "lon": 1.2974,
    "aliases": [],
    "postcode": "NR1 1JE"
  },
  "exeter": {
    "name": "Exeter",
    "ladCode": "E07000041",
    "region": "South West",
    "country": "England",
    "population": 130428,
    "lat": 50.7184,
    "lon": -3.5339,
    "aliases": [],
    "postcode": "EX1 1JJ"
  },
  "dundee": {
    "name": "Dundee",
    "ladCode": "S12000042",
    "region": "Scotland",
    "country": "Scotland",
    "population": 148210,
    "lat": 56.4620,
    "lon": -2.9707,
    "aliases": [],
    "postcode": "DD1 1DA"
  },
  "portsmouth": {
    "name": "Portsmouth",
    "ladCode": "E06000044",
    "region": "South East",
    "country": "England",
    "population": 215133,
    "lat": 50.8198,
    "lon": -1.0880,
    "aliases": ["pompey"],
    "postcode": "PO1 1AA"
  },
  "peterborough": {
    "name": "Peterborough",
    "ladCode": "E06000031",
    "region": "East of England",
    "country": "England",
    "population": 215700,
    "lat": 52.5695,
    "lon": -0.2405,
    "aliases": [],
    "postcode": "PE1 1DA"
  },
  "gloucester": {
    "name": "Gloucester",
    "ladCode": "E07000081",
    "region": "South West",
    "country": "England",
    "population": 131800,
    "lat": 51.8642,
    "lon": -2.2382,
    "aliases": [],
    "postcode": "GL1 1DY"
  },
  "wakefield": {
    "name": "Wakefield",
    "ladCode": "E08000036",
    "region": "Yorkshire and The Humber",
    "country": "England",
    "population": 345038,
    "lat": 53.6833,
    "lon": -1.4977,
    "aliases": [],
    "postcode": "WF1 1PQ"
  },
  "wigan": {
    "name": "Wigan",
    "ladCode": "E08000010",
    "region": "North West",
    "country": "England",
    "population": 326088,
    "lat": 53.5448,
    "lon": -2.6325,
    "aliases": [],
    "postcode": "WN1 1AD"
  },
  "doncaster": {
    "name": "Doncaster",
    "ladCode": "E08000017",
    "region": "Yorkshire and The Humber",
    "country": "England",
    "population": 311890,
    "lat": 53.5228,
    "lon": -1.1289,
    "aliases": ["donny"],
    "postcode": "DN1 1AA"
  }
}
